[
  {
    "name": "Ikan Bakar",
    "location": "Night Markets, Kangar",
    "state": "Perlis",
    "coordinate": { "latitude": 6.4419, "longitude": 100.1987 },
    "description": "Grilled fish typically served with spicy sauces, a favorite dish at Perlis night markets.",
    "reviewRating": 4,
    "activityCategory": "Local Specialty",
     "pictureUrl": "@/assets/ProfileImage/deshika.jpg",
     "openingHours": "7:00 AM - 10:00 PM",
     "priceRange": "RM5 - RM20"
  },
  {
    "name": "Kak Su Laksa Perlis",
    "location": "Kuala Perlis",
    "state": "Perlis",
    "coordinate": { "latitude": 6.3981, "longitude": 100.1408 },
    "description": "Rice noodle dish served with spicy fish-based gravy, a Perlis signature.",
    "reviewRating": 5,
    "activityCategory": "Local Specialty",
    "pictureUrl": "",
    "openingHours": "8:00 AM - 8:00 PM",
     "priceRange": "RM10 - RM20"
  },
  {
    "name": "Nasi Ganja",
    "location": "Kangar",
    "state": "Perlis",
    "coordinate": { "latitude": 6.4483, "longitude": 100.1887 },
    "description": "Fragrant rice served with a variety of side dishes, famous in Perlis.",
    "reviewRating": 4.8,
    "activityCategory": "Local Specialty",
    "openingHours": "7:00 AM - 5:00 PM",
    "priceRange": "RM10 - RM20"
  },
  {
    "name": "The Store Kangar",
    "location": "Kangar",
    "state": "Perlis",
    "coordinate": { "latitude": 6.4433, "longitude": 100.1999 },
    "description": "A local shopping center offering a variety of retail stores, groceries, and local products.",
    "reviewRating": 4,
    "activityCategory": "Shopping Spree",
    "openingHours": "9:00 AM - 6:00 PM",
    "priceRange": "RM2 - RM50"
  },
  {
    "name": "Padang Besar Market",
    "location": "Padang Besar",
    "state": "Perlis",
    "coordinate": { "latitude": 6.6651, "longitude": 100.3118 },
    "description": "Famous for duty-free shopping and affordable local goods at the Thailand border.",
    "reviewRating": 5,
    "activityCategory": "Shopping Spree",
    "openingHours": "7:00 AM - 1:00 PM",
    "priceRange": "RM5 - RM50"
  },
  {
    "name": "Bukit Keteri",
    "location": "Keteri",
    "state": "Perlis",
    "coordinate": { "latitude": 6.5751, "longitude": 100.1942 },
    "description": "Popular for rock climbing and hiking, offering panoramic views of the Perlis landscape.",
    "reviewRating": 5,
    "activityCategory": "Leg Day",
    "openingHours": "5:00 AM - 5:00 PM",
    "priceRange": "RM5 - RM15"


  },
  {
    "name": "Wang Kelian Viewpoint",
    "location": "Wang Kelian",
    "state": "Perlis",
    "coordinate": { "latitude": 6.6781, "longitude": 100.1980 },
    "description": "A scenic viewpoint with stunning sunrise views and a nearby Thai border market.",
    "reviewRating": 4,
    "activityCategory": "Leg Day",
    "openingHours": "4:00 AM - 6:00 PM",
    "priceRange": "RM5 - RM15"
  },
  {
    "name": "Kangar Cafe",
    "location": "Kangar",
    "state": "Perlis",
    "coordinate": { "latitude": 6.4402, "longitude": 100.1989 },
    "description": "A cozy cafe offering local Perlis delicacies and a range of beverages.",
    "reviewRating": 4,
    "activityCategory": "Cafe Hopping",
    "openingHours": "7:00 AM - 6:00 PM",
    "priceRange": "RM20 - RM40"
  },
  {
    "name": "Blackwood Coffee & Chocolate",
    "location": "Kuala Perlis",
    "state": "Perlis",
    "coordinate": { "latitude": 6.3979, "longitude": 100.1409 },
    "description": "Modern cafe with a focus on chocolate-based drinks and a peaceful atmosphere.",
    "reviewRating": 5,
    "activityCategory": "Cafe Hopping",
    "openingHours": "10:00 AM -9:00 PM",
    "priceRange": "RM20 - RM40"
  },

  {
    "name": "Kota Kayang Museum",
    "location": "Kuala Perlis",
    "state": "Perlis",
    "coordinate": { "latitude": 6.4300, "longitude": 100.1842 },
    "description": "A museum highlighting the history, culture, and heritage of Perlis.",
    "reviewRating": 4,
    "activityCategory": "Culture Shock",
    "openingHours": "10:00 AM - 5:00 PM",
    "priceRange": "RM30 - RM50"
  },
  {
    "name": "Al-Hussain Mosque",
    "location": "Kuala Perlis",
    "state": "Perlis",
    "coordinate": { "latitude": 6.3987, "longitude": 100.1409 },
    "description": "Known as the 'Floating Mosque,' offering beautiful views of the sea.",
    "reviewRating": 5,
    "activityCategory": "Culture Shock",
    "openingHours": "9:00 AM - 5:00 PM",
    "priceRange": "FREE Entrance Fee"

  },

  {
    "name": "Timah Tasoh Lake",
    "location": "Perlis",
    "state": "Perlis",
    "coordinate": { "latitude": 6.5205, "longitude": 100.1780 },
    "description": "A peaceful lake popular for boating and fishing, with scenic surroundings.",
    "reviewRating": 4,
    "activityCategory": "Water Experience",
    "openingHours": "All Day",
    "priceRange": "FREE Entrance Fee"

  },
  {
    "name": "Perlis Night Market",
    "location": "Perlis",
    "state": "Perlis",
    "coordinate": { "latitude": 6.4402, "longitude": 100.1989 },
    "description": "A vibrant night market featuring traditional Perlis delicacies and live entertainment.",
    "reviewRating": 4,
    "activityCategory": "Local Specialty",
    "openingHours": "7:00 PM - 2:00 AM",
    "priceRange": "RM2 - RM50"
  },

  {
      "name": "Laksa Kedah",
      "location": "Alor Setar",
      "state": "Kedah",
      "coordinate": { "latitude": 6.1161, "longitude": 100.3678 },
      "description": "Traditional rice noodles in a fish-based broth with cucumber, boiled egg, and sambal.",
      "reviewRating": 4,
      "activityCategory": "Local Specialty",
      "openingHours": "11:00 AM - 10:00 PM",
      "priceRange": "RM10 - RM20"
  },
  {
      "name": "Gulai Nangka",
      "location": "Alor Setar",
      "state": "Kedah",
      "coordinate": { "latitude": 6.1235, "longitude": 100.3608 },
      "description": "Spicy jackfruit curry served with rice.",
      "reviewRating": 5,
      "activityCategory": "Local Specialty",
      "openingHours": "9:00 AM - 3:00 PM",
      "priceRange": "RM5 - RM25"

  },

  {
      "name": "Aman Central Mall",
      "location": "Alor Setar",
      "state": "Kedah",
      "coordinate": { "latitude": 6.1248, "longitude": 100.3694 },
      "description": "The largest mall in Alor Setar offering retail stores, restaurants, and entertainment.",
      "reviewRating": 4,
      "activityCategory": "Shopping Spree",
      "openingHours": "10:00 AM - 9:00 PM",
      "priceRange": "RM10 - RM200"

  },
  {
      "name": "Cenang Mall",
      "location": "Langkawi",
      "state": "Kedah",
      "coordinate": { "latitude": 6.2981, "longitude": 99.7277 },
      "description": "A beachside shopping complex featuring fashion boutiques and duty-free stores.",
      "reviewRating": 4.5,
      "activityCategory": "Shopping Spree",
      "openingHours": "10:00 AM - 9:00 PM",
      "priceRange": "RM10 - RM200"
  },

  {
      "name": "Langkawi Wildlife Park",
      "location": "Langkawi",
      "state": "Kedah",
      "coordinate": { "latitude": 6.3751, "longitude": 99.8559 },
      "description": "Interactive wildlife park with bird shows and feeding sessions.",
      "reviewRating": 4.3,
      "activityCategory": "Amusement Park",
      "openingHours": "9:00 AM - 5:00 PM",
      "priceRange": "RM20"

  },
  {
      "name": "Underwater World Langkawi",
      "location": "Langkawi",
      "state": "Kedah",
      "coordinate": { "latitude": 6.2925, "longitude": 99.7224 },
      "description": "Marine and freshwater aquarium featuring a 15-meter walk-through tunnel.",
      "reviewRating": 5,
      "activityCategory": "Amusement Park",
      "openingHours": "10:00 AM - 5:00 PM",
      "priceRange": "RM30"
  },

  {
      "name": "Gunung Jerai",
      "location": "Yan",
      "state": "Kedah",
      "coordinate": { "latitude": 5.7892, "longitude": 100.4264 },
      "description": "Scenic mountain hiking with panoramic views.",
      "reviewRating": 5,
      "activityCategory": "Leg Day",
      
      "openingHours": "8:00 AM - 5:00 PM",
      "priceRange": "RM5 - RM15"
  },
  {
      "name": "Bukit Wang",
      "location": "Jitra",
      "state": "Kedah",
      "coordinate": { "latitude": 6.3084, "longitude": 100.3988 },
      "description": "Nature reserve with hiking trails and waterfalls.",
      "reviewRating": 4,
      "activityCategory": "Leg Day",
      "openingHours": "5:00 AM - 7:00 PM",
      "priceRange": "FREE Entrance Fee"
  },

  {
      "name": "LIMA Tiga",
      "location": "Alor Setar",
      "state": "Kedah",
      "coordinate": { "latitude": 6.1166, "longitude": 100.3701 },
      "description": "Trendy cafe known for brunch and coffee options.",
      "reviewRating": 4,
      "activityCategory": "Cafe Hopping",
      "openingHours": "7:00 AM - 6:00 PM",
      "priceRange": "RM10 - RM50"

  },
  {
      "name": "Art Cafe Alor Setar",
      "location": "Alor Setar",
      "state": "Kedah",
      "coordinate": { "latitude": 6.1232, "longitude": 100.3678 },
      "description": "Artsy cafe offering delicious cakes and specialty coffee.",
      "reviewRating": 5,
      "activityCategory": "Cafe Hopping",
      "openingHours": "8:00 AM - 5:00 PM",
      "priceRange": "RM15 - RM30"


  },

  {
      "name": "Zahir Mosque",
      "location": "Alor Setar",
      "state": "Kedah",
      "coordinate": { "latitude": 6.1238, "longitude": 100.3684 },
      "description": "One of the grandest and oldest mosques in Malaysia, known for its Moorish architecture.",
      "reviewRating": 5,
      "activityCategory": "Culture Shock",
      "openingHours": "9:00 AM - 5:00 PM",
      "priceRange": "FREE Entrance Fee"


  },
  {
      "name": "Paddy Museum",
      "location": "Alor Setar",
      "state": "Kedah",
      "coordinate": { "latitude": 6.1849, "longitude": 100.4330 },
      "description": "Museum dedicated to the history and significance of rice cultivation.",
      "reviewRating": 4,
      "activityCategory": "Culture Shock",
      "openingHours": "10:00 AM - 5:00 PM",
      "priceRange": "RM10 per entry"

  },
  
  {
      "name": "Langkawi Sky Bridge",
      "location": "Langkawi",
      "state": "Kedah",
      "coordinate": { "latitude": 6.3707, "longitude": 99.6682 },
      "description": "Suspension bridge offering breathtaking views of the Andaman Sea and Langkawi islands.",
      "reviewRating": 4.8,
      "activityCategory": "Water Experience",
      "openingHours": "All Day",
      "priceRange": "FREE Entrance Fee"

  },
  {
      "name": "Pulau Payar Marine Park",
      "location": "Langkawi",
      "state": "Kedah",
      "coordinate": { "latitude": 6.0635, "longitude": 100.0509 },
      "description": "A marine park popular for snorkeling and diving.",
      "reviewRating": 4,
      "activityCategory": "Water Experience",
      "openingHours": "All Day",
      "priceRange": "FREE Entrance Fee"

  },
  {
      "name": "Char Kway Teow",
      "location": "Gurney Drive",
      "state": "Penang",
      "coordinate": { "latitude": 5.4356, "longitude": 100.3098 },
      "description": "Stir-fried noodles with shrimp, cockles, and sausages.",
      "reviewRating": 5,
      "activityCategory": "Local Specialty",
      "openingHours": "11:00 AM - 10:00 PM",
      "priceRange": "RM10 - RM20"

      },
      {
      "name": "Penang Laksa",
      "location": "Ayer Itam",
      "state": "Penang",
      "coordinate": { "latitude": 5.4007, "longitude": 100.2776 },
      "description": "Spicy fish broth soup with rice noodles.",
      "reviewRating": 4,
      "activityCategory": "Local Specialty",
      "openingHours": "11:00 AM - 10:00 PM",
      "priceRange": "RM15 - RM25"
      },
      {
      "name": "Nasi Kandar",
      "location": "Line Clear Nasi Kandar, George Town",
      "state": "Penang",
      "coordinate": { "latitude": 5.4197, "longitude": 100.3328 },
      "description": "Popular Indian-Muslim rice dish served with a variety of curries and meats.",
      "reviewRating": 5,
      "activityCategory": "Local Specialty",
      "openingHours": "11:00 AM - 10:00 PM",
      "priceRange": "RM15 - RM25"

      },
      {
      "name": "Gurney Plaza",
      "location": "George Town",
      "state": "Penang",
      "coordinate": { "latitude": 5.4387, "longitude": 100.3083 },
      "description": "Upscale shopping mall with international and local brands.",
      "reviewRating": 5,
      "activityCategory": "Shopping Spree",
      "openingHours": "10:00 AM - 9:00 PM",
      "priceRange": "RM100 - RM500"

      },
      {
      "name": "Penang Times Square",
      "location": "George Town",
      "state": "Penang",
      "coordinate": { "latitude": 5.4139, "longitude": 100.3245 },
      "description": "Shopping mall with a variety of retail stores, cafes, and a cinema.",
      "reviewRating": 4,
      "activityCategory": "Shopping Spree",
      "openingHours": "10:00 AM - 9:00 PM",
      "priceRange": "RM100 - RM500"
      },
      {
      "name": "Escape Theme Park",
      "location": "Teluk Bahang",
      "state": "Penang",
      "coordinate": { "latitude": 5.4519, "longitude": 100.2346 },
      "description": "Adventure theme park with rope courses, zip lines, and water slides.",
      "reviewRating": 5,
      "activityCategory": "Amusement Park",
      "openingHours": "10:00 AM - 9:00 PM",
      "priceRange": "RM20 - RM50"

      },
      {
      "name": "Penang Avatar Secret Garden",
      "location": "Tanjung Tokong",
      "state": "Penang",
      "coordinate": { "latitude": 5.4659, "longitude": 100.3087 },
      "description": "Beautiful garden inspired by the movie Avatar, with LED lights and lush landscapes.",
      "reviewRating": 4,
      "activityCategory": "Amusement Park",
      "openingHours": "10:00 AM - 9:00 PM",
      "priceRange": "RM15 - RM30"


      },
      {
      "name": "Penang Hill",
      "location": "Air Itam",
      "state": "Penang",
      "coordinate": { "latitude": 5.4145, "longitude": 100.2769 },
      "description": "Hiking trails with panoramic views of Penang Island.",
      "reviewRating": 5,
      "activityCategory": "Leg Day",
      "openingHours": "All Day",
      "priceRange": "FREE Entrance Fee"

      },
      {
      "name": "Bukit Jambul",
      "location": "Bayan Lepas",
      "state": "Penang",
      "coordinate": { "latitude": 5.3362, "longitude": 100.2876 },
      "description": "Challenging hike through lush greenery.",
      "reviewRating": 4,
      "activityCategory": "Leg Day",
      "openingHours": "All Day",
      "priceRange": "FREE Entrance Fee"

      },
      {
      "name": "China House",
      "location": "George Town",
      "state": "Penang",
      "coordinate": { "latitude": 5.4156, "longitude": 100.3382 },
      "description": "Famous cafe with a long cake counter and a variety of coffee options.",
      "reviewRating": 5,
      "activityCategory": "Cafe Hopping",
      "openingHours": "7:00 PM - 2:00 AM",
      "priceRange": "RM10 - RM50"
        
      },
      {
      "name": "The Alley Penang",
      "location": "George Town",
      "state": "Penang",
      "coordinate": { "latitude": 5.4165, "longitude": 100.3376 },
      "description": "Hidden gem cafe known for churros and creative drinks.",
      "reviewRating": 4,
      "activityCategory": "Cafe Hopping",
      "openingHours": "7:00 AM - 12:00 AM",
      "priceRange": "RM5 - RM30"


      },
      {
      "name": "Cheong Fatt Tze Mansion",
      "location": "George Town",
      "state": "Penang",
      "coordinate": { "latitude": 5.4215, "longitude": 100.3337 },
      "description": "A historical mansion known for its blue facade and unique architectural blend.",
      "reviewRating": 5,
      "activityCategory": "Culture Shock",
      "openingHours": "All Day",
      "priceRange": "FREE Entrance Fee"

      },
      {
      "name": "Clan Jetties",
      "location": "George Town",
      "state": "Penang",
      "coordinate": { "latitude": 5.4165, "longitude": 100.3420 },
      "description": "Stilted houses along the water, representing Penang’s traditional Chinese clans.",
      "reviewRating": 4,
      "activityCategory": "Culture Shock",
      "openingHours": "All Day",
      "priceRange": "FREE Entrance Fee"
        
      },
      {
      "name": "Batu Ferringhi Beach",
      "location": "Batu Ferringhi",
      "state": "Penang",
      "coordinate": { "latitude": 5.4716, "longitude": 100.2499 },
      "description": "Popular beach offering water sports, resorts, and a vibrant night market.",
      "reviewRating": 5,
      "activityCategory": "Water Experience",
      "openingHours": "All Day",
      "priceRange": "FREE Entrance Fee"

      },
      {
      "name": "Penang National Park",
      "location": "Teluk Bahang",
      "state": "Penang",
      "coordinate": { "latitude": 5.4492, "longitude": 100.1973 },
      "description": "Protected area with hiking trails leading to secluded beaches and scenic views.",
      "reviewRating": 4,
      "activityCategory": "Water Experience",
      "openingHours": "All Day",
      "priceRange": "FREE Entrance Fee"

      },
           
      {
      "name": "Ipoh White Coffee",
      "location": "Sin Yoon Loong, Ipoh Old Town",
      "state": "Perak",
      "coordinate": {
          "latitude": 4.5975,
          "longitude": 101.0900
      },
      "description": "Iconic white coffee served with condensed milk, a must-try in Ipoh.",
      "reviewRating": 5,
      "activityCategory": "Local Specialty",
      "openingHours": "7:00 AM - 7:00 PM",
      "priceRange": "RM10 - RM20"
      },
      {
      "name": "Hainanese Chicken Rice",
      "location": "Lou Wong, Ipoh",
      "state": "Perak",
      "coordinate": {
          "latitude": 4.6005,
          "longitude": 101.0824
      },
      "description": "Poached chicken served with fragrant rice and soy sauce, a famous Ipoh dish.",
      "reviewRating": 4,
      "activityCategory": "Local Specialty",
      "openingHours": "11:00 AM - 10:00 PM",
      "priceRange": "RM15 - RM25"
      },
  
      {
      "name": "Ipoh Parade",
      "location": "Ipoh",
      "state": "Perak",
      "coordinate": {
          "latitude": 4.5979,
          "longitude": 101.0892
      },
      "description": "Popular shopping mall in Ipoh offering fashion, food, and entertainment.",
      "reviewRating": 4,
      "activityCategory": "Shopping Spree",
      "openingHours": "10:00 AM - 9:00 PM",
      "priceRange": "RM$ - RM$$"

      },
      {
      "name": "Kinta City Shopping Centre",
      "location": "Ipoh",
      "state": "Perak",
      "coordinate": {
          "latitude": 4.6114,
          "longitude": 101.1149
      },
      "description": "Another prominent mall in Ipoh, with a range of retail shops and restaurants.",
      "reviewRating": 4,
      "activityCategory": "Shopping Spree",
      "openingHours": "10:00 AM - 9:00 PM",
      "priceRange": "RM$ - RM$$"

      },
  
      {
      "name": "Lost World of Tambun",
      "location": "Tambun, Ipoh",
      "state": "Perak",
      "coordinate": {
          "latitude": 4.6259,
          "longitude": 101.1552
      },
      "description": "A theme park offering water rides, hot springs, and a petting zoo.",
      "reviewRating": 5,
      "activityCategory": "Amusement Park",
      "openingHours": "10:00 AM - 9:00 PM",
      "priceRange": "RM35 - RM60"
      },
  
      {
      "name": "Bukit Kledang",
      "location": "Ipoh",
      "state": "Perak",
      "coordinate": {
          "latitude": 4.6227,
          "longitude": 101.0484
      },
      "description": "A scenic hiking trail that offers panoramic views of Ipoh.",
      "reviewRating": 4,
      "activityCategory": "Leg Day",
      "openingHours": "All Day",
      "priceRange": "FREE Entrance Fee"

      },
      {
      "name": "Kellie's Castle",
      "location": "Batu Gajah",
      "state": "Perak",
      "coordinate": {
          "latitude": 4.4744,
          "longitude": 101.0654
      },
      "description": "A Scottish-style castle with a mysterious history, surrounded by gardens.",
      "reviewRating": 5,
      "activityCategory": "Leg Day",
      "openingHours": "All Day",
      "priceRange": "FREE Entrance Fee"

      },
  
      {
      "name": "Plan B",
      "location": "Ipoh Old Town",
      "state": "Perak",
      "coordinate": {
          "latitude": 4.5970,
          "longitude": 101.0789
      },
      "description": "Trendy cafe known for its fusion of local and Western dishes, housed in a heritage building.",
      "reviewRating": 5,
      "activityCategory": "Cafe Hopping",
      "openingHours": "7:00 AM - 7:00 PM",
      "priceRange": "RM10 - RM20"

      },
      {
      "name": "Thumb's Cafe",
      "location": "Ipoh",
      "state": "Perak",
      "coordinate": {
          "latitude": 4.6001,
          "longitude": 101.0882
      },
      "description": "A rustic cafe offering traditional Malay food and drinks in a cozy setting.",
      "reviewRating": 4,
      "activityCategory": "Cafe Hopping",
      "openingHours": "7:00 AM - 7:00 PM",
      "priceRange": "RM5 - RM30"

      },
  
      {
      "name": "Han Chin Pet Soo",
      "location": "Ipoh",
      "state": "Perak",
      "coordinate": {
          "latitude": 4.5976,
          "longitude": 101.0799
      },
      "description": "A museum dedicated to the history of Ipoh's Hakka miners and their lives.",
      "reviewRating": 5,
      "activityCategory": "Culture Shock",
      "openingHours": "All Day",
      "priceRange": "FREE Entrance Fee"
      },
      {
      "name": "Birch Memorial Clock Tower",
      "location": "Ipoh",
      "state": "Perak",
      "coordinate": {
          "latitude": 4.5979,
          "longitude": 101.0801
      },
      "description": "Historical clock tower commemorating the British Resident of Perak, James W. W. Birch.",
      "reviewRating": 4,
      "activityCategory": "Culture Shock",
      "openingHours": "All Day",
      "priceRange": "FREE Entrance Fee"

      },

      {
      "name": "Gua Tempurung",
      "location": "Gopeng",
      "state": "Perak",
      "coordinate": {
          "latitude": 4.4301,
          "longitude": 101.1860
      },
      "description": "Limestone cave known for its breathtaking rock formations and guided tours.",
      "reviewRating": 5,
      "activityCategory": "Water Experience",
      "openingHours": "All Day",
      "priceRange": "FREE Entrance Fee"

      },
      {
      "name": "River Rafting at Kampar River",
      "location": "Gopeng",
      "state": "Perak",
      "coordinate": {
          "latitude": 4.4374,
          "longitude": 101.1817
      },
      "description": "Exciting river rafting experience with rapids and scenic nature surroundings.",
      "reviewRating": 5,
      "activityCategory": "Water Experience",
      "openingHours": "All Day",
      "priceRange": "FREE Entrance Fee"
      },
            
      {
      "name": "Jalan Alor Street Food",
      "location": "Bukit Bintang",
      "state": "Kuala Lumpur",
      "coordinate": {
          "latitude": 3.1454,
          "longitude": 101.7072
      },
      "description": "A haven for street food lovers offering local favorites such as grilled meats, noodles, and seafood.",
      "reviewRating": 5,
      "activityCategory": "Local Specialty",
      "openingHours": "11:00 AM - 10:00 PM",
      "priceRange": "RM15 - RM30"

      },
      {
      "name": "Nasi Lemak Antarabangsa",
      "location": "Kampung Baru",
      "state": "Kuala Lumpur",
      "coordinate": {
          "latitude": 3.1644,
          "longitude": 101.6932
      },
      "description": "Famous nasi lemak with fragrant rice, sambal, fried chicken, and other toppings.",
      "reviewRating": 5,
      "activityCategory": "Local Specialty",
      "openingHours": "11:00 AM - 10:00 PM",
      "priceRange": "RM20 - RM40"

      },

      {
      "name": "Suria KLCC",
      "location": "Kuala Lumpur City Centre",
      "state": "Kuala Lumpur",
      "coordinate": {
          "latitude": 3.1579,
          "longitude": 101.7123
      },
      "description": "High-end shopping mall located at the base of the Petronas Twin Towers with a range of international luxury brands.",
      "reviewRating": 5,
      "activityCategory": "Shopping Spree",
      "openingHours": "10:00 AM - 9:00 PM",
      "priceRange": "RM$ - RM$$"


      },
      {
      "name": "Pavilion Kuala Lumpur",
      "location": "Bukit Bintang",
      "state": "Kuala Lumpur",
      "coordinate": {
          "latitude": 3.1486,
          "longitude": 101.7135
      },
      "description": "Premier shopping destination featuring high-end fashion, dining, and entertainment options.",
      "reviewRating": 5,
      "activityCategory": "Shopping Spree",
      "openingHours": "10:00 AM - 9:00 PM",
      "priceRange": "RM$ - RM$$"


      },
  
      {
      "name": "SuperPark Malaysia",
      "location": "Avenue K, KLCC",
      "state": "Kuala Lumpur",
      "coordinate": {
          "latitude": 3.1581,
          "longitude": 101.7127
      },
      "description": "Indoor activity park offering a wide range of sports, games, and obstacle courses for all ages.",
      "reviewRating": 4,
      "activityCategory": "Amusement Park",
      "openingHours": "10:00 AM - 9:00 PM",
      "priceRange": "RM$ - RM$$"

      },
      {
      "name": "Aquaria KLCC",
      "location": "Kuala Lumpur City Centre",
      "state": "Kuala Lumpur",
      "coordinate": {
          "latitude": 3.1555,
          "longitude": 101.7136
      },
      "description": "Aquarium with over 5,000 different aquatic and land-bound creatures, featuring a walk-through underwater tunnel.",
      "reviewRating": 5,
      "activityCategory": "Amusement Park",
      "openingHours": "10:00 AM - 9:00 PM",
      "priceRange": "RM35 - RM100"

      },
  
      {
      "name": "Bukit Bintang Walk",
      "location": "Bukit Bintang",
      "state": "Kuala Lumpur",
      "coordinate": {
          "latitude": 3.1484,
          "longitude": 101.7133
      },
      "description": "A scenic hiking trail offering panoramic views of Kuala Lumpur and the Klang Gates Dam.",
      "reviewRating": 5,
      "activityCategory": "Leg Day",
      "openingHours": "6:00 AM - 2:00 AM",
      "priceRange": "FREE Entrance Fee"
      },


      {
      "name": "Bukit Tabur",
      "location": "Taman Melawati",
      "state": "Kuala Lumpur",
      "coordinate": {
          "latitude": 3.2230,
          "longitude": 101.7501
      },
      "description": "Popular hiking trail offering stunning views of Kuala Lumpur and the Klang Gates Dam.",
      "reviewRating": 4,
      "activityCategory": "Leg Day",
      "openingHours": "All Day",
      "priceRange": "FREE Entrance Fee"
      },
  
      {
      "name": "VCR Cafe",
      "location": "Bukit Bintang",
      "state": "Kuala Lumpur",
      "coordinate": {
          "latitude": 3.1439,
          "longitude": 101.7079
      },
      "description": "Popular cafe known for its specialty coffee and cozy environment.",
      "reviewRating": 5,
      "activityCategory": "Cafe Hopping",
      "openingHours": "10:00 AM - 10:00 PM",
      "priceRange": "RM$ - RM$$"
      },
      {
      "name": "Merchant’s Lane",
      "location": "Petaling Street",
      "state": "Kuala Lumpur",
      "coordinate": {
          "latitude": 3.1449,
          "longitude": 101.6975
      },
      "description": "Charming cafe with a vintage vibe serving fusion brunch dishes and coffee.",
      "reviewRating": 4,
      "activityCategory": "Cafe Hopping",
      "openingHours": "10:00 AM - 10:00 PM",
      "priceRange": "RM$ - RM$$"
      },
  
      {
      "name": "Sultan Abdul Samad Building",
      "location": "Dataran Merdeka",
      "state": "Kuala Lumpur",
      "coordinate": {
          "latitude": 3.1487,
          "longitude": 101.6946
      },
      "description": "Iconic landmark in Kuala Lumpur with Moorish architecture, housing government offices.",
      "reviewRating": 5,
      "activityCategory": "Culture Shock",
      "openingHours": "All Day",
      "priceRange": "FREE Entrance Fee"
      },
      {
      "name": "National Mosque of Malaysia (Masjid Negara)",
      "location": "Jalan Perdana",
      "state": "Kuala Lumpur",
      "coordinate": {
          "latitude": 3.1466,
          "longitude": 101.6921
      },
      "description": "Grand mosque known for its modernist design and large, star-shaped dome.",
      "reviewRating": 5,
      "activityCategory": "Culture Shock",
      "openingHours": "10:00 AM - 9:00 PM",
      "priceRange": "RM$ - RM$$"
      },

      {
      "name": "Lake Gardens",
      "location": "Perdana Botanical Gardens",
      "state": "Kuala Lumpur",
      "coordinate": {
          "latitude": 3.1455,
          "longitude": 101.6875
      },
      "description": "Beautiful park with lakes, fountains, and recreational activities like paddle boating.",
      "reviewRating": 5,
      "activityCategory": "Water Experience",
      "openingHours": "All Day",
      "priceRange": "FREE Entrance Fee"
      },

  {
      "name": "Batu Caves",
      "location": "Gombak",
      "state": "Kuala Lumpur",
      "coordinate": {
          "latitude": 3.2379,
          "longitude": 101.6842
      },
      "description": "Iconic limestone hill with a series of caves and cave temples, requiring a climb up 272 colorful steps.",
      "reviewRating": 5,
      "activityCategory": "Leg Day",
      "openingHours": "5:00 AM - 8:00 PM",
      "priceRange": "RM5 - RM15"
      },
  {
      "name": "Satay Kajang",
      "location": "Kajang",
      "state": "Selangor",
      "coordinate": {
      "latitude": 2.9934,
      "longitude": 101.7883
      },
      "description": "Grilled skewers of seasoned meat served with a spicy peanut sauce, a famous dish in Kajang.",
      "reviewRating": 5,
      "activityCategory": "Local Specialty",
      "openingHours": "11:00 AM - 10:00 PM",
      "priceRange": "RM15 - RM30"
  },
  {
      "name": "Nasi Ambeng",
      "location": "Bangi",
      "state": "Selangor",
      "coordinate": {
      "latitude": 2.9213,
      "longitude": 101.7731
      },
      "description": "Traditional Javanese rice dish served with chicken, beef rendang, sambal, and noodles.",
      "reviewRating": 4,
      "activityCategory": "Local Specialty",
      "openingHours": "11:00 AM - 10:00 PM",
      "priceRange": "RM20 - RM40"

  },
  
  {
      "name": "Sunway Pyramid",
      "location": "Subang Jaya",
      "state": "Selangor",
      "coordinate": {
      "latitude": 3.0731,
      "longitude": 101.6067
      },
      "description": "Iconic shopping mall with an Egyptian theme offering international brands, dining, and entertainment.",
      "reviewRating": 5,
      "activityCategory": "Shopping Spree",
      "openingHours": "10:00 AM - 10:00 PM",
      "priceRange": "RM$ - RM$$"
  },
  {
      "name": "One Utama Shopping Mall",
      "location": "Bandar Utama",
      "state": "Selangor",
      "coordinate": {
      "latitude": 3.1479,
      "longitude": 101.6153
      },
      "description": "One of the largest shopping malls in Malaysia, offering a wide range of retail, dining, and leisure options.",
      "reviewRating": 5,
      "activityCategory": "Shopping Spree",
      "openingHours": "10:00 AM - 10:00 PM",
      "priceRange": "RM$ - RM$$"

  },
  
  {
      "name": "Sunway Lagoon",
      "location": "Subang Jaya",
      "state": "Selangor",
      "coordinate": {
      "latitude": 3.0729,
      "longitude": 101.6053
      },
      "description": "Theme park featuring water rides, adventure parks, and a wildlife park.",
      "reviewRating": 5,
      "activityCategory": "Amusement Park",
      "openingHours": "10:00 AM - 10:00 PM",
      "priceRange": "RM150 - RM250"
  },
  {
      "name": "i-City",
      "location": "Shah Alam",
      "state": "Selangor",
      "coordinate": {
      "latitude": 3.0660,
      "longitude": 101.4854
      },
      "description": "Digital lights theme park featuring LED displays, amusement rides, and a water park.",
      "reviewRating": 4,
      "activityCategory": "Amusement Park",
      "openingHours": "9:00 AM - 1:00 AM",
      "priceRange": "RM$ - RM$$"
  },
  
  {
      "name": "Batu Caves",
      "location": "Gombak",
      "state": "Selangor",
      "coordinate": {
      "latitude": 3.2379,
      "longitude": 101.6842
      },
      "description": "Iconic limestone hill with a series of caves and cave temples, requiring a climb up 272 colorful steps.",
      "reviewRating": 5,
      "activityCategory": "Leg Day",
      "openingHours": "5:00 AM - 8:00 PM",
      "priceRange": "FREE Entrance Fee"
  },
  {
      "name": "Taman Botani Negara",
      "location": "Shah Alam",
      "state": "Selangor",
      "coordinate": {
      "latitude": 3.0724,
      "longitude": 101.5127
      },
      "description": "National botanical garden offering scenic trails, gardens, and a canopy walkway.",
      "reviewRating": 4,
      "activityCategory": "Leg Day",
      "openingHours": "10:00 AM - 9:00 PM",
      "priceRange": "RM$ - RM$$"
  },
  
  {
      "name": "Garage 51",
      "location": "Subang Jaya",
      "state": "Selangor",
      "coordinate": {
      "latitude": 3.0739,
      "longitude": 101.6061
      },
      "description": "Trendy cafe with a garage theme, offering creative brunch dishes and artisanal coffee.",
      "reviewRating": 5,
      "activityCategory": "Cafe Hopping",
      "openingHours": "7:00 AM - 10:00 PM",
      "priceRange": "RM$ - RM$$"
  },
  {
      "name": "Podgy & The Banker",
      "location": "Sri Hartamas",
      "state": "Selangor",
      "coordinate": {
      "latitude": 3.1590,
      "longitude": 101.6652
      },
      "description": "Cozy cafe with a minimalist vibe, serving coffee, cakes, and light meals.",
      "reviewRating": 4,
      "activityCategory": "Cafe Hopping",
      "openingHours": "10:00 AM - 9:00 PM",
      "priceRange": "RM$ - RM$$"
  },

  {
      "name": "Sultan Salahuddin Abdul Aziz Mosque",
      "location": "Shah Alam",
      "state": "Selangor",
      "coordinate": {
      "latitude": 3.0782,
      "longitude": 101.5189
      },
      "description": "Malaysia's largest mosque, known for its stunning blue dome and Islamic architecture.",
      "reviewRating": 5,
      "activityCategory": "Culture Shock",
      "openingHours": "10:00 AM - 9:00 PM",
      "priceRange": "FREE Entrance Fee"
  },
  {
      "name": "Batu Caves Temple",
      "location": "Gombak",
      "state": "Selangor",
      "coordinate": {
      "latitude": 3.2379,
      "longitude": 101.6842
      },
      "description": "Hindu temple dedicated to Lord Murugan, known for its giant statue and cave temples.",
      "reviewRating": 5,
      "activityCategory": "Culture Shock",
      "openingHours": "10:00 AM - 9:00 PM",
      "priceRange": "FREE Entrance Fee"


  },
  
  {
      "name": "Paya Indah Wetlands",
      "location": "Dengkil",
      "state": "Selangor",
      "coordinate": {
      "latitude": 2.8737,
      "longitude": 101.6895
      },
      "description": "Nature reserve offering lake cruises, birdwatching, and fishing activities.",
      "reviewRating": 4,
      "activityCategory": "Water Experience",
      "openingHours": "10:00 AM - 9:00 PM",
      "priceRange": "FREE Entrance Fee"
  },
  {
      "name": "Taman Tasik Titiwangsa",
      "location": "Titiwangsa",
      "state": "Selangor",
      "coordinate": {
      "latitude": 3.1762,
      "longitude": 101.7046
      },
      "description": "Recreational park with a lake for paddle boating and scenic walks.",
      "reviewRating": 5,
      "activityCategory": "Water Experience",
      "openingHours": "All Day",
      "priceRange": "FREE Entrance Fee"


  },
  
  {
      "name": "Masak Lemak Cili Api",
      "location": "Seremban",
      "state": "Negeri Sembilan",
      "coordinate": {
      "latitude": 2.7297,
      "longitude": 101.9381
      },
      "description": "Spicy coconut milk dish with a variety of meats, known for its bold flavors in Negeri Sembilan.",
      "reviewRating": 5,
      "activityCategory": "Local Specialty",
      "openingHours": "11:00 AM - 10:00 PM",
      "priceRange": "RM20 - RM40"
  },
  {
      "name": "Rendang Negeri Sembilan",
      "location": "Seremban",
      "state": "Negeri Sembilan",
      "coordinate": {
      "latitude": 2.7298,
      "longitude": 101.9381
      },
      "description": "Slow-cooked beef dish with rich spices, a traditional delicacy of Negeri Sembilan.",
      "reviewRating": 5,
      "activityCategory": "Local Specialty",
        "openingHours": "10:00 AM - 9:00 PM",
      "priceRange": "RM5 - RM20"
  },
  
  {
      "name": "Palm Mall",
      "location": "Seremban",
      "state": "Negeri Sembilan",
      "coordinate": {
      "latitude": 2.7253,
      "longitude": 101.9441
      },
      "description": "The largest shopping mall in Seremban offering a variety of retail, dining, and entertainment options.",
      "reviewRating": 4,
      "activityCategory": "Shopping Spree",
      "openingHours": "10:00 AM - 10:00 PM",
      "priceRange": "RM$ - RM$$"
  },

  {
      "name": "A'Famosa Resort",
      "location": "Alor Gajah",
      "state": "Negeri Sembilan",
      "coordinate": {
      "latitude": 2.4381,
      "longitude": 102.1946
      },
      "description": "A resort with a water park, safari, and theme park activities.",
      "reviewRating": 5,
      "activityCategory": "Amusement Park",
      "openingHours": "8:00 AM - 10:00 PM",
      "priceRange": "FREE Entrance Fee"

  },
  
  {
      "name": "Gunung Datuk",
      "location": "Rembau",
      "state": "Negeri Sembilan",
      "coordinate": {
      "latitude": 2.5908,
      "longitude": 102.0975
      },
      "description": "Popular hiking destination with a challenging climb and breathtaking views from the summit.",
      "reviewRating": 5,
      "activityCategory": "Leg Day"
  },
  {
      "name": "Bukit Batu Putih",
      "location": "Port Dickson",
      "state": "Negeri Sembilan",
      "coordinate": {
      "latitude": 2.5252,
      "longitude": 101.7956
      },
      "description": "Scenic hiking trail offering panoramic views of the coastline.",
      "reviewRating": 4,
      "activityCategory": "Leg Day",
      "openingHours": "10:00 AM - 9:00 PM",
      "priceRange": "RM$ - RM$$"
  },
  
  {
      "name": "Pickle & Fig",
      "location": "Seremban",
      "state": "Negeri Sembilan",
      "coordinate": {
      "latitude": 2.7246,
      "longitude": 101.9352
      },
      "description": "Popular cafe offering sandwiches, smoothies, and a cozy atmosphere.",
      "reviewRating": 4,
      "activityCategory": "Cafe Hopping",
        "openingHours": "10:00 AM - 9:00 PM",
      "priceRange": "RM$ - RM$$"
  },
  {
      "name": "OpenHouse Cafe",
      "location": "Port Dickson",
      "state": "Negeri Sembilan",
      "coordinate": {
      "latitude": 2.5249,
      "longitude": 101.7970
      },
      "description": "Beachside cafe known for its relaxing ambiance and great coffee.",
      "reviewRating": 5,
      "activityCategory": "Cafe Hopping",
      "openingHours": "7:00 AM - 10:00 PM",
      "priceRange": "RM$ - RM$$"
    
  },
  
  {
      "name": "Royal Museum Seri Menanti",
      "location": "Seri Menanti",
      "state": "Negeri Sembilan",
      "coordinate": {
      "latitude": 2.6466,
      "longitude": 102.2505
      },
      "description": "Traditional wooden palace showcasing the royal history of Negeri Sembilan.",
      "reviewRating": 5,
      "activityCategory": "Culture Shock",
      "openingHours": "10:00 AM - 9:00 PM",
      "priceRange": "FREE Entrance Fee"
  },
  {
      "name": "Istana Lama Seri Menanti",
      "location": "Kuala Pilah",
      "state": "Negeri Sembilan",
      "coordinate": {
      "latitude": 2.7390,
      "longitude": 102.2637
      },
      "description": "A royal palace turned museum, displaying artifacts from the Negeri Sembilan royal family.",
      "reviewRating": 4,
      "activityCategory": "Culture Shock",
      "openingHours": "10:00 AM - 9:30 PM",
      "priceRange": "FREE Entrance Fee"
  },
  
  {
      "name": "Port Dickson Beach",
      "location": "Port Dickson",
      "state": "Negeri Sembilan",
      "coordinate": {
      "latitude": 2.5153,
      "longitude": 101.8014
      },
      "description": "Popular beach with water sports, resorts, and family-friendly activities.",
      "reviewRating": 5,
      "activityCategory": "Water Experience",
      "openingHours": "All Day",
      "priceRange": "FREE Entrance Fee"

  },
  {
      "name": "Blue Lagoon",
      "location": "Port Dickson",
      "state": "Negeri Sembilan",
      "coordinate": {
      "latitude": 2.4459,
      "longitude": 101.8611
      },
      "description": "Secluded beach with calm waters, ideal for swimming and snorkeling.",
      "reviewRating": 4,
      "activityCategory": "Water Experience",
      "openingHours": "10:00 AM - 6:00 PM",
      "priceRange": "RM$ - RM$$"
  },

  {
      "name": "Chicken Rice Balls",
      "location": "Jonker Street",
      "state": "Melaka",
      "coordinate": { "latitude": 2.1962, "longitude": 102.2467 },
      "description": "Famous rice balls served with poached chicken, a local Melaka specialty.",
      "reviewRating": 5,
      "activityCategory": "Local Specialty",
      "openingHours": "5:00 PM - 2:00 AM",
      "priceRange": "RM$ - RM$$"
  },
  {
      "name": "Cendol Durian",
      "location": "Jonker 88, Jonker Street",
      "state": "Melaka",
      "coordinate": { "latitude": 2.1974, "longitude": 102.2462 },
      "description": "A popular dessert made with shaved ice, coconut milk, and durian.",
      "reviewRating": 4,
      "activityCategory": "Local Specialty",
      "openingHours": "5:00 PM - 2:00 AM",
      "priceRange":"RM10 - RM20"

  },
  
  {
      "name": "Dataran Pahlawan Melaka Megamall",
      "location": "Bandar Hilir",
      "state": "Melaka",
      "coordinate": { "latitude": 2.1896, "longitude": 102.2494 },
      "description": "A large shopping mall offering retail stores, restaurants, and entertainment options.",
      "reviewRating": 4,
      "activityCategory": "Shopping Spree",
      "openingHours": "10:00 AM - 10:00 PM",
      "priceRange": "RM$ - RM$$"
  },
  {
      "name": "Mahkota Parade",
      "location": "Melaka",
      "state": "Melaka",
      "coordinate": { "latitude": 2.1909, "longitude": 102.2464 },
      "description": "Popular shopping mall with a variety of local and international brands.",
      "reviewRating": 4,
      "activityCategory": "Shopping Spree",
      "openingHours": "10:00 AM - 10:00 PM",
      "priceRange": "RM$ - RM$$"

  },
  
  {
      "name": "A'Famosa Resort",
      "location": "Alor Gajah",
      "state": "Melaka",
      "coordinate": { "latitude": 2.4381, "longitude": 102.1946 },
      "description": "Resort offering a water park, safari, and theme park activities.",
      "reviewRating": 5,
      "activityCategory": "Amusement Park",
      "openingHours": "8:00 AM - 10:00 PM",
      "priceRange": "FREE Entrance Fee"


  },
  {
      "name": "Melaka Wonderland Theme Park",
      "location": "Ayer Keroh",
      "state": "Melaka",
      "coordinate": { "latitude": 2.2875, "longitude": 102.3016 },
      "description": "Water theme park featuring water slides, wave pools, and other attractions.",
      "reviewRating": 4,
      "activityCategory": "Amusement Park",
      "openingHours": "8:00 AM - 10:00 PM",
      "priceRange": "RM60 - RM90"


  },
  
  {
      "name": "Bukit China",
      "location": "Melaka",
      "state": "Melaka",
      "coordinate": { "latitude": 2.2033, "longitude": 102.2507 },
      "description": "Historic hill known for its large Chinese cemetery and scenic walking trails.",
      "reviewRating": 4,
      "activityCategory": "Leg Day",
      "openingHours": "10:00 AM - 9:00 PM",
      "priceRange": "RM$ - RM$$"



  },
  {
      "name": "St. Paul's Hill",
      "location": "Bandar Hilir",
      "state": "Melaka",
      "coordinate": { "latitude": 2.1934, "longitude": 102.2497 },
      "description": "A popular hiking spot offering views of Melaka and access to historical ruins.",
      "reviewRating": 4,
      "activityCategory": "Leg Day",
      "openingHours": "10:00 AM - 9:00 PM",
      "priceRange": "RM$ - RM$$"

  },
  
  {
      "name": "The Daily Fix",
      "location": "Jonker Street",
      "state": "Melaka",
      "coordinate": { "latitude": 2.1962, "longitude": 102.2471 },
      "description": "A cozy cafe located in a heritage shop, known for its pandan pancakes and coffee.",
      "reviewRating": 5,
      "activityCategory": "Cafe Hopping",
      "openingHours": "7:00 AM - 6:00 PM",
      "priceRange": "RM$ - RM$$"
  },
  {
      "name": "Calanthe Art Cafe",
      "location": "Jonker Street",
      "state": "Melaka",
      "coordinate": { "latitude": 2.1977, "longitude": 102.2455 },
      "description": "Unique cafe offering coffee from all 13 states of Malaysia.",
      "reviewRating": 4,
      "activityCategory": "Cafe Hopping",
      "openingHours": "7:00 AM - 6:00 PM",
      "priceRange": "RM$ - RM$$"


  },
  
  {
      "name": "A Famosa Fort",
      "location": "Bandar Hilir",
      "state": "Melaka",
      "coordinate": { "latitude": 2.1924, "longitude": 102.2509 },
      "description": "One of the oldest surviving European architectural remains in Southeast Asia.",
      "reviewRating": 5,
      "activityCategory": "Culture Shock",
      "openingHours": "10:00 AM - 9:00 PM",
      "priceRange": "FREE Entrance Fee"


  },
  {
      "name": "The Stadthuys",
      "location": "Red Square, Melaka",
      "state": "Melaka",
      "coordinate": { "latitude": 2.1945, "longitude": 102.2497 },
      "description": "A historic Dutch colonial building in Melaka, now housing a museum.",
      "reviewRating": 4,
      "activityCategory": "Culture Shock",
      "openingHours": "10:00 AM - 9:00 PM",
      "priceRange": "FREE Entrance Fee"
  },
  
  {
      "name": "Melaka River Cruise",
      "location": "Melaka River",
      "state": "Melaka",
      "coordinate": { "latitude": 2.2007, "longitude": 102.2476 },
      "description": "Scenic boat ride along the Melaka River, offering views of historical landmarks and murals.",
      "reviewRating": 5,
      "activityCategory": "Water Experience",
      "openingHours": "All Day",
      "priceRange": "FREE Entrance Fee"


  },
  {
      "name": "Pantai Klebang",
      "location": "Klebang",
      "state": "Melaka",
      "coordinate": { "latitude": 2.2215, "longitude": 102.2154 },
      "description": "A beach popular for its coconut shakes and beautiful sand dunes.",
      "reviewRating": 4,
      "activityCategory": "Water Experience",
      "openingHours": "10:00 AM - 6:00 PM",
      "priceRange": "RM$ - RM$$"

  },
  
  {
      "name": "Mee Bandung Muar",
      "location": "Muar",
      "state": "Johor",
      "coordinate": { "latitude": 2.0507, "longitude": 102.5686 },
      "description": "Traditional noodles in a rich, spicy broth made with dried shrimp, beef, and vegetables.",
      "reviewRating": 5,
      "activityCategory": "Local Specialty",
      "openingHours": "5:00 PM - 2:00 AM",
      "priceRange": "RM$ - RM$$"


  },
  {
      "name": "Laksa Johor",
      "location": "Johor Bahru",
      "state": "Johor",
      "coordinate": { "latitude": 1.4927, "longitude": 103.7414 },
      "description": "Johorean laksa made with spaghetti, served in a fish-based coconut curry.",
      "reviewRating": 4,
      "activityCategory": "Local Specialty",
      "openingHours": "5:00 PM - 2:00 AM",
      "priceRange": "RM$ - RM$$"

  },
  
  {
      "name": "Johor Premium Outlets",
      "location": "Kulai",
      "state": "Johor",
      "coordinate": { "latitude": 1.6033, "longitude": 103.6226 },
      "description": "Luxury brands at discounted prices.",
      "reviewRating": 5,
      "activityCategory": "Shopping Spree",
      "openingHours": "10:00 AM - 9:00 PM",
      "priceRange": "RM$ - RM$$" 
  },
  {
      "name": "City Square Mall",
      "location": "Johor Bahru",
      "state": "Johor",
      "coordinate": { "latitude": 1.4632, "longitude": 103.7629 },
      "description": "Popular shopping mall with retail stores, eateries, and a cinema.",
      "reviewRating": 4,
      "activityCategory": "Shopping Spree",
      "openingHours": "10:00 AM - 9:00 PM",
      "priceRange": "RM$ - RM$$"
  },
  
  {
      "name": "Legoland Malaysia",
      "location": "Iskandar Puteri",
      "state": "Johor",
      "coordinate": { "latitude": 1.4259, "longitude": 103.6330 },
      "description": "A theme park and water park with Lego-themed attractions and rides.",
      "reviewRating": 5,
      "activityCategory": "Amusement Park",
      "openingHours": "8:00 AM - 8:00 PM",
      "priceRange": "RM$$ - RM$$$"

  },
  {
      "name": "Desaru Coast Adventure Waterpark",
      "location": "Bandar Penawar",
      "state": "Johor",
      "coordinate": { "latitude": 1.5524, "longitude": 104.2609 },
      "description": "Water park with wave pools, slides, and a lazy river.",
      "reviewRating": 4,
      "activityCategory": "Amusement Park",
      "openingHours": "8:00 AM - 8:00 PM",
      "priceRange":"RM$ - RM$$"

  },
  
  {
      "name": "Gunung Ledang",
      "location": "Tangkak",
      "state": "Johor",
      "coordinate": { "latitude": 2.3586, "longitude": 102.6129 },
      "description": "Popular hiking destination with challenging trails and stunning views.",
      "reviewRating": 5,
      "activityCategory": "Leg Day",
      "openingHours": "8:00 AM - 8:00 PM",
      "priceRange":"FREE Entrance Fee" 

  },
  {
      "name": "Mount Pulai",
      "location": "Kulai",
      "state": "Johor",
      "coordinate": { "latitude": 1.6090, "longitude": 103.5642 },
      "description": "Mountain with scenic hiking trails, waterfalls, and panoramic views.",
      "reviewRating": 4,
      "activityCategory": "Leg Day",
      "openingHours": "8:00 AM - 8:00 PM",
      "priceRange":"FREE Entrance Fee" 


  },
  
  {
      "name": "IT Roo Cafe",
      "location": "Johor Bahru",
      "state": "Johor",
      "coordinate": { "latitude": 1.4585, "longitude": 103.7631 },
      "description": "Famous for its chicken chop and local delicacies.",
      "reviewRating": 4,
      "activityCategory": "Cafe Hopping",
      "openingHours": "7:00 AM - 6:00 PM",
      "priceRange": "RM$ - RM$$"

  },
  {
      "name": "Faculty of Caffeine",
      "location": "Johor Bahru",
      "state": "Johor",
      "coordinate": { "latitude": 1.4601, "longitude": 103.7620 },
      "description": "Trendy cafe offering artisanal coffee and brunch items.",
      "reviewRating": 5,
      "activityCategory": "Cafe Hopping",
      "openingHours": "7:00 AM - 6:00 PM",
      "priceRange": "RM$ - RM$$"
  },
  
  {
      "name": "Sultan Abu Bakar State Mosque",
      "location": "Johor Bahru",
      "state": "Johor",
      "coordinate": { "latitude": 1.4576, "longitude": 103.7460 },
      "description": "Victorian and Moorish architecture with a view of the Straits of Johor.",
      "reviewRating": 5,
      "activityCategory": "Culture Shock",
      "openingHours": "7:00 AM - 6:00 PM",
      "priceRange": "RM$ - RM$$"

  },
  {
      "name": "Istana Bukit Serene",
      "location": "Johor Bahru",
      "state": "Johor",
      "coordinate": { "latitude": 1.4660, "longitude": 103.7104 },
      "description": "Royal palace of the Sultan of Johor, known for grand architecture.",
      "reviewRating": 4,
      "activityCategory": "Culture Shock",
      "openingHours": "7:00 AM - 6:00 PM",
      "priceRange": "FREE Entrance Fee"

  },
  
  {
      "name": "Desaru Beach",
      "location": "Bandar Penawar",
      "state": "Johor",
      "coordinate": { "latitude": 1.5549, "longitude": 104.2661 },
      "description": "Beautiful beach with water sports activities and golden sand.",
      "reviewRating": 5,
      "activityCategory": "Water Experience",
      "openingHours": "7:00 AM - 6:00 PM",
      "priceRange": "FREE Entrance Fee"

  },

                                  
  {
      "name": "Keropok Lekor",
      "location": "Kuala Terengganu",
      "state": "Terengganu",
      "coordinate": { "latitude": 5.3282, "longitude": 103.1370 },
      "description": "Famous fish crackers made from ground fish and sago flour, typically served with a spicy dipping sauce.",
      "reviewRating": 5,
      "activityCategory": "Local Specialty",
      "openingHours": "11:00 AM - 10:00 PM"

  },
  {
      "name": "Nasi Dagang",
      "location": "Kuala Terengganu",
      "state": "Terengganu",
      "coordinate": { "latitude": 5.3289, "longitude": 103.1424 },
      "description": "A fragrant rice dish steamed with coconut milk, served with a side of tuna curry and pickled vegetables.",
      "reviewRating": 5,
      "activityCategory": "Local Specialty",
      "openingHours": "11:00 AM - 10:00 PM",
      "priceRange": "RM15 - RM40"

  },
  
  {
      "name": "Pasar Payang",
      "location": "Kuala Terengganu",
      "state": "Terengganu",
      "coordinate": { "latitude": 5.3333, "longitude": 103.1332 },
      "description": "A popular central market selling a variety of local crafts, batik, textiles, and fresh produce.",
      "reviewRating": 4,
      "activityCategory": "Shopping Spree",
      "openingHours": "8:00 AM - 1:00 PM",
      "priceRange": "FREE Entrance Fee"

  },
  {
      "name": "Mydin Mall",
      "location": "Kuala Terengganu",
      "state": "Terengganu",
      "coordinate": { "latitude": 5.3027, "longitude": 103.0974 },
      "description": "A large shopping mall offering a mix of retail stores, restaurants, and family-friendly entertainment.",
      "reviewRating": 4,
      "activityCategory": "Shopping Spree",
      "openingHours": "10:00 AM - 9:30 PM",
      "priceRange": "RM$ - RM$$"

  },
  
  {
      "name": "Kenyir Water Park",
      "location": "Tasik Kenyir",
      "state": "Terengganu",
      "coordinate": { "latitude": 5.0144, "longitude": 102.8187 },
      "description": "Water park located within Kenyir Lake, offering fun water slides and activities surrounded by natural beauty.",
      "reviewRating": 4,
      "activityCategory": "Amusement Park",
      "openingHours": "8:00 AM - 3:00 PM",
      "priceRange": "RM35 - RM60"
  },
  {
      "name": "Islamic Heritage Park",
      "location": "Pulau Wan Man",
      "state": "Terengganu",
      "coordinate": { "latitude": 5.3245, "longitude": 103.1375 },
      "description": "A park featuring scaled replicas of famous Islamic monuments, such as the Taj Mahal and the Dome of the Rock.",
      "reviewRating": 5,
      "activityCategory": "Amusement Park",
      "openingHours": "8:00 AM - 3:00 PM",
      "priceRange": "FREE Entrance Fee"
  },
  
  {
      "name": "Bukit Besar",
      "location": "Kuala Terengganu",
      "state": "Terengganu",
      "coordinate": { "latitude": 5.3086, "longitude": 103.1362 },
      "description": "A popular hiking spot that offers panoramic views of Kuala Terengganu from the top.",
      "reviewRating": 4,
      "activityCategory": "Leg Day",
      "openingHours": "8:00 AM - 6:00 PM",
      "priceRange": "FREE Entrance Fee"


  },
  {
      "name": "Taman Negara",
      "location": "Kuala Berang",
      "state": "Terengganu",
      "coordinate": { "latitude": 4.8402, "longitude": 102.3724 },
      "description": "Explore the trails, flora, and fauna of Malaysia’s oldest national park, located partially in Terengganu.",
      "reviewRating": 5,
      "activityCategory": "Leg Day",
      "openingHours": "8:00 AM - 6:00 PM",
      "priceRange": "FREE Entrance Fee"
  },

  {
      "name": "Star Anise Cafe",
      "location": "Kuala Terengganu",
      "state": "Terengganu",
      "coordinate": { "latitude": 5.3330, "longitude": 103.1383 },
      "description": "Charming cafe offering great coffee and a selection of cakes, sandwiches, and local snacks.",
      "reviewRating": 4,
      "activityCategory": "Cafe Hopping",
      "openingHours": "7:00 AM - 6:00 PM",
      "priceRange": "RM$ - RM$$"


  },
  {
      "name": "Ganu Coffee",
      "location": "Kuala Terengganu",
      "state": "Terengganu",
      "coordinate": { "latitude": 5.3376, "longitude": 103.1372 },
      "description": "Popular coffee spot known for its cozy atmosphere and artisanal brews.",
      "reviewRating": 5,
      "activityCategory": "Cafe Hopping",
      "openingHours": "7:00 AM - 8:00 PM",
      "priceRange": "RM$ - RM$$"

  },
  
  {
      "name": "Crystal Mosque",
      "location": "Pulau Wan Man",
      "state": "Terengganu",
      "coordinate": { "latitude": 5.3245, "longitude": 103.1375 },
      "description": "A stunning mosque made of steel, glass, and crystal, known for its modern architecture.",
      "reviewRating": 5,
      "activityCategory": "Culture Shock",
      "openingHours": "7:00 AM - 6:00 PM",
      "priceRange": "FREE Entrance Fee"
  },
  {
      "name": "Terengganu State Museum",
      "location": "Kuala Terengganu",
      "state": "Terengganu",
      "coordinate": { "latitude": 5.3115, "longitude": 103.1123 },
      "description": "The largest museum in Malaysia, showcasing Terengganu’s cultural heritage, natural history, and Islamic art.",
      "reviewRating": 5,
      "activityCategory": "Culture Shock",
      "openingHours": "10:00 AM - 5:00 PM",
      "priceRange": "FREE Entrance Fee"
  },

  {
      "name": "Redang Island",
      "location": "Redang",
      "state": "Terengganu",
      "coordinate": { "latitude": 5.7749, "longitude": 103.0058 },
      "description": "Famous island for snorkeling, diving, and its crystal-clear waters teeming with marine life.",
      "reviewRating": 5,
      "activityCategory": "Water Experience",
      "openingHours": "7:00 AM - 6:00 PM",
      "priceRange": "RM$ - RM$$"


  },
  {
      "name": "Perhentian Islands",
      "location": "Besut",
      "state": "Terengganu",
      "coordinate": { "latitude": 5.9162, "longitude": 102.7342 },
      "description": "Beautiful islands known for pristine beaches, clear waters, and a variety of water sports.",
      "reviewRating": 5,
      "activityCategory": "Water Experience",
      "openingHours": "7:00 AM - 6:00 PM",
      "priceRange": "RM$ - RM$$"
  },

      {
        "name": "Nasi Kerabu",
        "location": "Kota Bharu",
        "state": "Kelantan",
        "coordinate": { "latitude": 6.1256, "longitude": 102.2383 },
        "description": "A traditional dish of blue-colored rice served with fried chicken, fish crackers, and a variety of herbs.",
        "reviewRating": 5,
        "activityCategory": "Local Specialty",
        "openingHours": "11:00 AM - 10:00 PM",
        "priceRange": "RM15 - RM40"

      },
      {
        "name": "Laksam",
        "location": "Kota Bharu",
        "state": "Kelantan",
        "coordinate": { "latitude": 6.1238, "longitude": 102.2421 },
        "description": "Thick, rolled rice noodles served with a rich and creamy fish-based coconut milk gravy.",
        "reviewRating": 4,
        "activityCategory": "Local Specialty",
        "openingHours": "11:00 AM - 10:00 PM",
        "priceRange": "RM15 - RM30"
      },
   
      {
        "name": "Siti Khadijah Market",
        "location": "Kota Bharu",
        "state": "Kelantan",
        "coordinate": { "latitude": 6.1298, "longitude": 102.2402 },
        "description": "A famous local market offering traditional goods, clothing, and fresh produce, run predominantly by women.",
        "reviewRating": 5,
        "activityCategory": "Shopping Spree",
        "openingHours": "10:00 AM - 9:00 PM",
        "priceRange": "RM$ - RM$$"

      },
      {
        "name": "KB Mall",
        "location": "Kota Bharu",
        "state": "Kelantan",
        "coordinate": { "latitude": 6.1310, "longitude": 102.2360 },
        "description": "A modern shopping mall with a variety of retail outlets and eateries.",
        "reviewRating": 4,
        "activityCategory": "Shopping Spree",
        "openingHours": "10:00 AM - 9:00 PM",
        "priceRange": "RM$ - RM$$"
      },
    
      {
        "name": "Pantai Cahaya Bulan",
        "location": "Kota Bharu",
        "state": "Kelantan",
        "coordinate": { "latitude": 6.1661, "longitude": 102.3011 },
        "description": "A popular beach with scenic views and water activities like kite flying and picnicking.",
        "reviewRating": 4,
        "activityCategory": "Amusement Park",
        "openingHours": "All Day",
        "priceRange": "FREE Entrance Fee"


      },
  
      {
        "name": "Gunung Stong",
        "location": "Kuala Krai",
        "state": "Kelantan",
        "coordinate": { "latitude": 5.3503, "longitude": 101.9546 },
        "description": "A challenging mountain hike with scenic waterfalls, including the highest waterfall in Southeast Asia, Jelawang Waterfall.",
        "reviewRating": 5,
        "activityCategory": "Leg Day",
        "openingHours": "All Day",
        "priceRange": "FREE Entrance Fee"


      },
      {
        "name": "Bukit Bakar",
        "location": "Machang",
        "state": "Kelantan",
        "coordinate": { "latitude": 5.7612, "longitude": 102.2033 },
        "description": "A popular hiking and recreational area surrounded by lush greenery.",
        "reviewRating": 4,
        "activityCategory": "Leg Day",
        "openingHours": "All Day",
        "priceRange": "FREE Entrance Fee"

      },
   
      {
        "name": "Sun Two Cafe",
        "location": "Kota Bharu",
        "state": "Kelantan",
        "coordinate": { "latitude": 6.1235, "longitude": 102.2407 },
        "description": "Cozy cafe known for serving a variety of local and Western fusion dishes.",
        "reviewRating": 4,
        "activityCategory": "Cafe Hopping",
        "openingHours": "7:00 AM - 6:00 PM",
        "priceRange": "RM$ - RM$$"

      },
      {
        "name": "Beco Cafe",
        "location": "Kota Bharu",
        "state": "Kelantan",
        "coordinate": { "latitude": 6.1334, "longitude": 102.2381 },
        "description": "Charming spot offering great coffee and local desserts.",
        "reviewRating": 4,
        "activityCategory": "Cafe Hopping",
        "openingHours": "7:00 AM - 6:00 PM",
        "priceRange": "RM$ - RM$$"
      },
  
      {
        "name": "Istana Jahar",
        "location": "Kota Bharu",
        "state": "Kelantan",
        "coordinate": { "latitude": 6.1280, "longitude": 102.2422 },
        "description": "A royal palace turned museum showcasing Kelantan’s cultural heritage and royal history.",
        "reviewRating": 4,
        "activityCategory": "Culture Shock",
        "openingHours": "All Day",
        "priceRange": "FREE Entrance Fee"

      },
      {
        "name": "Kampung Kraftangan",
        "location": "Kota Bharu",
        "state": "Kelantan",
        "coordinate": { "latitude": 6.1323, "longitude": 102.2441 },
        "description": "A village dedicated to traditional Kelantanese crafts such as batik, wood carving, and silverware.",
        "reviewRating": 5,
        "activityCategory": "Culture Shock",
        "openingHours": "All Day",
        "priceRange": "FREE Entrance Fee"

      },
    
      {
        "name": "Pantai Irama",
        "location": "Bachok",
        "state": "Kelantan",
        "coordinate": { "latitude": 6.0461, "longitude": 102.4073 },
        "description": "Known as the 'Beach of Melody,' a scenic spot for swimming and beach activities.",
        "reviewRating": 4,
        "activityCategory": "Water Experience",
        "openingHours": "All Day",
        "priceRange": "FREE Entrance Fee"
      },
      {
        "name": "Riverside Cruise",
        "location": "Tumpat",
        "state": "Kelantan",
        "coordinate": { "latitude": 6.1954, "longitude": 102.1612 },
        "description": "A relaxing boat cruise along the Kelantan River, with views of traditional Malay villages.",
        "reviewRating": 4,
        "activityCategory": "Water Experience",
        "openingHours": "All Day",
        "priceRange": "RM$ - RM$$"

      },
      {
      "name": "Putrajaya Seafood Restaurant",
      "location": "Putrajaya",
      "state": "Putrajaya",
      "coordinate": { "latitude": 2.9273, "longitude": 101.6696 },
      "description": "A fine-dining seafood restaurant offering a scenic view of the lake.",
      "reviewRating": 5,
      "activityCategory": "Local Specialty",
      "openingHours": "11:00 AM - 10:00 PM",
      "priceRange": "RM$ - RM$$"

  },
  {
      "name": "Dorsett Putrajaya",
      "location": "Putrajaya",
      "state": "Putrajaya",
      "coordinate": { "latitude": 2.9160, "longitude": 101.6807 },
      "description": "Popular for its buffet-style meals offering both local and international cuisines.",
      "reviewRating": 4,
      "activityCategory": "Local Specialty",
      "openingHours": "8:00 AM - 11:00 PM",
      "priceRange": "RM$$ - RM$$$"
  },

  {
      "name": "Alamanda Shopping Centre",
      "location": "Precinct 1, Putrajaya",
      "state": "Putrajaya",
      "coordinate": { "latitude": 2.9408, "longitude": 101.7049 },
      "description": "The main shopping mall in Putrajaya, offering a variety of stores, eateries, and entertainment options.",
      "reviewRating": 4,
      "activityCategory": "Shopping Spree", 
      "openingHours":"10:00 AM - 10:00 PM",
      "priceRange": "RM$ - RM$$"

  },

  {
      "name": "Putrajaya Botanical Garden",
      "location": "Putrajaya",
      "state": "Putrajaya",
      "coordinate": { "latitude": 2.9431, "longitude": 101.7014 },
      "description": "The largest botanical garden in Malaysia, offering scenic walking trails and themed gardens.",
      "reviewRating": 5,
      "activityCategory": "Leg Day",
      "openingHours":"10:00 AM - 10:00 PM",
      "priceRange": "FREE Entrance Fee"


  },
  {
      "name": "Taman Saujana Hijau",
      "location": "Presint 11, Putrajaya",
      "state": "Putrajaya",
      "coordinate": { "latitude": 2.9493, "longitude": 101.7021 },
      "description": "A hilltop park with European-style landscapes and panoramic views of Putrajaya.",
      "reviewRating": 5,
      "activityCategory": "Leg Day",
      "openingHours":"10:00 AM - 10:00 PM",
      "priceRange":"FREE Entrance Fee"

  },

  {
      "name": "Serabei Cafe",
      "location": "Putrajaya",
      "state": "Putrajaya",
      "coordinate": { "latitude": 2.9230, "longitude": 101.6778 },
      "description": "Charming cafe offering local Kelantanese dishes and fusion meals.",
      "reviewRating": 4,
      "activityCategory": "Cafe Hopping",
      "openingHours":"10:00 AM - 10:00 PM",
      "priceRange": "RM$ - RM$$"
  },
  {
      "name": "Boost Juice Bars",
      "location": "Alamanda Shopping Centre, Putrajaya",
      "state": "Putrajaya",
      "coordinate": { "latitude": 2.9408, "longitude": 101.7049 },
      "description": "Popular spot for fresh fruit smoothies and juices.",
      "reviewRating": 4,
      "activityCategory": "Cafe Hopping",
      "openingHours":"10:00 AM - 10:00 PM",
      "priceRange": "RM$ - RM$$"
  },

  {
      "name": "Putra Mosque",
      "location": "Putra Square",
      "state": "Putrajaya",
      "coordinate": { "latitude": 2.9360, "longitude": 101.6913 },
      "description": "Iconic pink-domed mosque known for its stunning architecture and lakefront location.",
      "reviewRating": 5,
      "activityCategory": "Culture Shock",
      "openingHours":"10:00 AM - 10:00 PM",
      "priceRange": "FREE Entrance Fee"
  },
  {
      "name": "Millennium Monument",
      "location": "Putrajaya",
      "state": "Putrajaya",
      "coordinate": { "latitude": 2.9275, "longitude": 101.6907 },
      "description": "National monument offering panoramic views of Putrajaya and the surrounding lake.",
      "reviewRating": 4,
      "activityCategory": "Culture Shock",
       "openingHours":"10:00 AM - 10:00 PM",
      "priceRange": "FREE Entrance Fee"
  },

  {
      "name": "Putrajaya Lake Cruise",
      "location": "Putrajaya Lake",
      "state": "Putrajaya",
      "coordinate": { "latitude": 2.9346, "longitude": 101.6907 },
      "description": "A scenic cruise offering views of Putrajaya's landmarks, including the Putra Mosque and Seri Wawasan Bridge.",
      "reviewRating": 5,
      "activityCategory": "Water Experience",
      "openingHours":"10:00 AM - 10:00 PM", 
      "priceRange": "RM$ - RM$$"
  },
  {
      "name": "Seri Wawasan Bridge",
      "location": "Putrajaya",
      "state": "Putrajaya",
      "coordinate": { "latitude": 2.9374, "longitude": 101.6919 },
      "description": "An architectural marvel and a popular spot for photography, best viewed from the lake or a boat.",
      "reviewRating": 4,
      "activityCategory": "Water Experience",
       "openingHours":"10:00 AM - 8.00 PM",
      "priceRange": "RM$ - RM$$"
  },
  {
      "name": "Nasi Kebuli",
      "location": "Kuantan",
      "state": "Pahang",
      "coordinate": { "latitude": 3.8072, "longitude": 103.3280 },
      "description": "Fragrant rice dish cooked with spices and served with tender meat, often accompanied by sambal.",
      "reviewRating": 5,
      "activityCategory": "Local Specialty",
       "openingHours":"10:00 AM - 6:00 PM",
      "priceRange": "RM5 - RM15"
  },
  {
      "name": "Patin Tempoyak",
      "location": "Kuantan",
      "state": "Pahang",
      "coordinate": { "latitude": 3.8072, "longitude": 103.3280 },
      "description": "Catfish cooked in a tangy fermented durian sauce, a must-try local delicacy.",
      "reviewRating": 4,
      "activityCategory": "Local Specialty",
       "openingHours":"10:00 AM - 4:00 PM",
      "priceRange": "RM10 - RM50"
  },

  {
      "name": "East Coast Mall",
      "location": "Kuantan",
      "state": "Pahang",
      "coordinate": { "latitude": 3.8004, "longitude": 103.3247 },
      "description": "A modern shopping mall with a variety of shops, restaurants, and entertainment options.",
      "reviewRating": 4,
      "activityCategory": "Shopping Spree",
      "openingHours":"10:00 AM - 10:00 PM",
      "priceRange": "RM$ - RM$$"
  },
  {
      "name": "Giant Hypermarket",
      "location": "Kuantan",
      "state": "Pahang",
      "coordinate": { "latitude": 3.8070, "longitude": 103.3473 },
      "description": "A large hypermarket offering groceries and household items at affordable prices.",
      "reviewRating": 3,
      "activityCategory": "Shopping Spree",
       "openingHours":"10:00 AM - 10:00 PM",
      "priceRange": "RM$ - RM$$"
  },
  
  {
      "name": "Berjaya Hills Resort",
      "location": "Bukit Tinggi",
      "state": "Pahang",
      "coordinate": { "latitude": 3.1064, "longitude": 101.7548 },
      "description": "A resort with various activities including a theme park, animal park, and French village.",
      "reviewRating": 4,
      "activityCategory": "Amusement Park",
      "openingHours":"10:00 AM - 10:00 PM",
      "priceRange": "FREE Entrance Fee"
  },
  
  {
      "name": "Cameron Highlands",
      "location": "Cameron Highlands",
      "state": "Pahang",
      "coordinate": { "latitude": 4.4759, "longitude": 101.3622 },
      "description": "Famous for its cool climate, tea plantations, and scenic hiking trails.",
      "reviewRating": 5,
      "activityCategory": "Leg Day",
      "openingHours":"10:00 AM - 10:00 PM",
      "priceRange": "FREE Entrance Fee"
  },
  {
      "name": "Taman Negara",
      "location": "Kuala Tahan",
      "state": "Pahang",
      "coordinate": { "latitude": 4.3301, "longitude": 102.3744 },
      "description": "The oldest national park in Malaysia, featuring lush rainforests and diverse wildlife.",
      "reviewRating": 5,
      "activityCategory": "Leg Day",
      "openingHours":"10:00 AM - 10:00 PM",
      "priceRange": "FREE Entrance Fee"

  },
  
  {
      "name": "Coffee Cottage",
      "location": "Cameron Highlands",
      "state": "Pahang",
      "coordinate": { "latitude": 4.4758, "longitude": 101.3605 },
      "description": "A cozy cafe known for its homemade cakes and coffee with a view of the hills.",
      "reviewRating": 4,
      "activityCategory": "Cafe Hopping",
      "openingHours":"10:00 AM - 6:00 PM",
      "priceRange": "RM$ - RM$$"

  },
  {
      "name": "The Lord's Cafe",
      "location": "Cameron Highlands",
      "state": "Pahang",
      "coordinate": { "latitude": 4.4750, "longitude": 101.3623 },
      "description": "Famous for its scones and tea in a charming setting.",
      "reviewRating": 5,
      "activityCategory": "Cafe Hopping",
      "openingHours":"10:00 AM - 6:00 PM",
      "priceRange": "RM$ - RM$$"
  },
  
  {
      "name": "Sultan Ahmad Shah State Mosque",
      "location": "Kuantan",
      "state": "Pahang",
      "coordinate": { "latitude": 3.8111, "longitude": 103.3289 },
      "description": "An iconic mosque known for its stunning architecture and serene surroundings.",
      "reviewRating": 5,
      "activityCategory": "Culture Shock",
      "openingHours":"7:00 AM - 8:00 PM",
      "priceRange": "FREE Entrance Fee"



  },
  {
      "name": "Pahang Museum",
      "location": "Kuantan",
      "state": "Pahang",
      "coordinate": { "latitude": 3.8103, "longitude": 103.3248 },
      "description": "A museum showcasing the history and culture of Pahang.",
      "reviewRating": 4,
      "activityCategory": "Culture Shock",
      "openingHours":"10:00 AM - 5:00 PM",
      "priceRange": "FREE Entrance Fee"
  },
  
  {
      "name": "Cherating Beach",
      "location": "Cherating",
      "state": "Pahang",
      "coordinate": { "latitude": 4.2376, "longitude": 103.4165 },
      "description": "A beautiful beach known for its clear waters, ideal for swimming and water sports.",
      "reviewRating": 5,
      "activityCategory": "Water Experience",
      "openingHours":"All Day",
      "priceRange": "FREE Entrance Fee"
  },
  {
      "name": "Lake Chini",
      "location": "Lake Chini",
      "state": "Pahang",
      "coordinate": { "latitude": 3.4054, "longitude": 102.6758 },
      "description": "A picturesque lake surrounded by lush greenery, known for its biodiversity.",
      "reviewRating": 4,
      "activityCategory": "Water Experience",
      "openingHours":"6:30 AM - 10:00 PM",
      "priceRange": "FREE Entrance Fee"

  }
  ]
                  
          
            